{
"type": "FeatureCollection",
"name": "Rainfall",
"crs": { "type": "name", "properties": { "name": "urn:ogc:def:crs:OGC:1.3:CRS84" } },
"features": [
{ "type": "Feature", "properties": { "Name": "Cushe ", "Type": "HOBO", "Number": "RL03.01", "Watershed": "Nariva" }, "geometry": { "type": "Point", "coordinates": [ -61.171319565147286, 10.376746300690284 ] } },
{ "type": "Feature", "properties": { "Name": "San Pedro", "Type": "HOBO", "Number": "RL08.01", "Watershed": "Couva" }, "geometry": { "type": "Point", "coordinates": [ -61.382715618916755, 10.398520888310262 ] } },
{ "type": "Feature", "properties": { "Name": "Coora WTP", "Type": "HOBO", "Number": "RL07.01", "Watershed": "South Oropouche" }, "geometry": { "type": "Point", "coordinates": [ -61.501954149483495, 10.13016044286768 ] } },
{ "type": "Feature", "properties": { "Name": "Trinity Dam ", "Type": "HOBO", "Number": "RL05.01", "Watershed": "Moruga" }, "geometry": { "type": "Point", "coordinates": [ -61.556373867460245, 10.679204901154623 ] } },
{ "type": "Feature", "properties": { "Name": "Caura WTP", "Type": "HOBO", "Number": "RL09.01", "Watershed": "Tacarigua" }, "geometry": { "type": "Point", "coordinates": [ -61.369327249669254, 10.660989975837571 ] } },
{ "type": "Feature", "properties": { "Name": "Loango Upper", "Type": "HOBO", "Number": "RL09.02", "Watershed": "Maracas" }, "geometry": { "type": "Point", "coordinates": [ -61.42580598942083, 10.728064860495214 ] } },
{ "type": "Feature", "properties": { "Name": "Belle Vue", "Type": "HOBO", "Number": "RL09.03", "Watershed": "Port-of-Spain" }, "geometry": { "type": "Point", "coordinates": [ -61.48941841555343, 10.695008995165663 ] } },
{ "type": "Feature", "properties": { "Name": "Chaguaramas", "Type": "HOBO", "Number": "RL09.04", "Watershed": "Chaguaramas" }, "geometry": { "type": "Point", "coordinates": [ -61.610244559964116, 10.727360988458519 ] } },
{ "type": "Feature", "properties": { "Name": "Four Roads WTP", "Type": "HOBO", "Number": "RL09.05", "Watershed": "Chaguaramas" }, "geometry": { "type": "Point", "coordinates": [ -61.555980535444377, 10.688931736494601 ] } },
{ "type": "Feature", "properties": { "Name": "Matura WTP", "Type": "HOBO", "Number": "RL02.01", "Watershed": "Matura" }, "geometry": { "type": "Point", "coordinates": [ -61.056728048127383, 10.68200265246743 ] } },
{ "type": "Feature", "properties": { "Name": "San Fernando Tech.", "Type": "HOBO", "Number": "RL08.02", "Watershed": "Cipero" }, "geometry": { "type": "Point", "coordinates": [ -61.441469137144033, 10.290362332292338 ] } },
{ "type": "Feature", "properties": { "Name": "Aripo Livestock", "Type": "HOBO", "Number": "RL09.06", "Watershed": "Aripo" }, "geometry": { "type": "Point", "coordinates": [ -61.239772908499461, 10.639920686793275 ] } },
{ "type": "Feature", "properties": { "Name": "Cap De Ville", "Type": "HOBO", "Number": "RL06.01", "Watershed": "Cedros" }, "geometry": { "type": "Point", "coordinates": [ -61.616415359272615, 10.141855061568503 ] } },
{ "type": "Feature", "properties": { "Name": "Chatham", "Type": "HOBO", "Number": "RL06.02", "Watershed": "Cedros" }, "geometry": { "type": "Point", "coordinates": [ -61.72030068360592, 10.137367513799287 ] } },
{ "type": "Feature", "properties": { "Name": "Cunupia", "Type": "HOBO", "Number": "RL09.07", "Watershed": "Cunupia" }, "geometry": { "type": "Point", "coordinates": [ -61.305611811806891, 10.538215700745967 ] } },
{ "type": "Feature", "properties": { "Name": "Guaracara", "Type": "HOBO", "Number": "RL08.03", "Watershed": "Guaracara" }, "geometry": { "type": "Point", "coordinates": [ -61.347553536846924, 10.364248617985552 ] } },
{ "type": "Feature", "properties": { "Name": "Guayaguayare", "Type": "HOBO", "Number": "RL05.01", "Watershed": "Pilote" }, "geometry": { "type": "Point", "coordinates": [ -61.128011213984223, 10.120496265516964 ] } },
{ "type": "Feature", "properties": { "Name": "Heights of Guanapo", "Type": "HOBO", "Number": "RL09.08", "Watershed": "Guanapo" }, "geometry": { "type": "Point", "coordinates": [ -61.262756020365472, 10.686859545200287 ] } },
{ "type": "Feature", "properties": { "Name": "La Brea", "Type": "HOBO", "Number": "RL06.03", "Watershed": "Guapo" }, "geometry": { "type": "Point", "coordinates": [ -61.630274740300386, 10.241593646582928 ] } },
{ "type": "Feature", "properties": { "Name": "Mayaro", "Type": "HOBO", "Number": "RL05.02", "Watershed": "Pilote" }, "geometry": { "type": "Point", "coordinates": [ -61.004009741535114, 10.257272949440789 ] } },
{ "type": "Feature", "properties": { "Name": "Morne Bleu", "Type": "HOBO", "Number": "RL01.03", "Watershed": "Madamas" }, "geometry": { "type": "Point", "coordinates": [ -61.406055165843313, 10.726987898794363 ] } },
{ "type": "Feature", "properties": { "Name": "Penal", "Type": "HOBO", "Number": "RL07.02", "Watershed": "South Oropouche" }, "geometry": { "type": "Point", "coordinates": [ -61.317501349266806, 10.202462376914511 ] } },
{ "type": "Feature", "properties": { "Name": "Preau", "Type": "HOBO", "Number": null, "Watershed": "South Oropouche" }, "geometry": { "type": "Point", "coordinates": [ -61.421150779749141, 10.132313796654214 ] } },
{ "type": "Feature", "properties": { "Name": "Saunders Trace", "Type": "HOBO", "Number": "RL04.01", "Watershed": "Ortoire" }, "geometry": { "type": "Point", "coordinates": [ -61.172702737400712, 10.217458982542446 ] } },
{ "type": "Feature", "properties": { "Name": "St. Madeline", "Type": "HOBO", "Number": "RL08.04", "Watershed": "Cipero" }, "geometry": { "type": "Point", "coordinates": [ -61.419635262091219, 10.267563143051895 ] } },
{ "type": "Feature", "properties": { "Name": "Point Fortin", "Type": "Telemet", "Number": "TE 6.01", "Watershed": "Guapo" }, "geometry": { "type": "Point", "coordinates": [ -61.654469353240273, 10.178008973832652 ] } },
{ "type": "Feature", "properties": { "Name": "Arena Telemet", "Type": "Telemet", "Number": "TE 9.02", "Watershed": "Caroni-Arena Dam" }, "geometry": { "type": "Point", "coordinates": [ -61.25545057922659, 10.543979958848425 ] } },
{ "type": "Feature", "properties": { "Name": "Sangre Grande", "Type": "Telemet", "Number": "TP 2.01", "Watershed": "Rest North Oropouche 2" }, "geometry": { "type": "Point", "coordinates": [ -61.119784448747858, 10.584514032956292 ] } },
{ "type": "Feature", "properties": { "Name": "Tamana Teak", "Type": "Telemet", "Number": "TP 2.02", "Watershed": "Cumuto" }, "geometry": { "type": "Point", "coordinates": [ -61.175472111521728, 10.465061713410872 ] } },
{ "type": "Feature", "properties": { "Name": "North Oropouche", "Type": "Telemet", "Number": "TP 2.05", "Watershed": "North Oropouche" }, "geometry": { "type": "Point", "coordinates": [ -61.139778861789637, 10.666984815475741 ] } },
{ "type": "Feature", "properties": { "Name": "Navet", "Type": "Telemet", "Number": "TP 3.04", "Watershed": "Upper Navet" }, "geometry": { "type": "Point", "coordinates": [ -61.251773329437256, 10.401393299456423 ] } },
{ "type": "Feature", "properties": { "Name": "Pure", "Type": "Telemet", "Number": "TP 4.01", "Watershed": "Pilote" }, "geometry": { "type": "Point", "coordinates": [ -61.304353854271454, 10.337216072310488 ] } },
{ "type": "Feature", "properties": { "Name": "Saunders Trace", "Type": "Telemet", "Number": "TP 4.02", "Watershed": "Moruga" }, "geometry": { "type": "Point", "coordinates": [ -61.174714842785171, 10.216817260319663 ] } },
{ "type": "Feature", "properties": { "Name": "Cat's Hill", "Type": "Telemet", "Number": "TP 5.03", "Watershed": "Moruga" }, "geometry": { "type": "Point", "coordinates": [ -61.308860009205453, 10.193673223313734 ] } },
{ "type": "Feature", "properties": { "Name": "Guapo", "Type": "Telemet", "Number": "TP 6.03", "Watershed": "Guapo" }, "geometry": { "type": "Point", "coordinates": [ -61.633742453674877, 10.15852789104124 ] } },
{ "type": "Feature", "properties": { "Name": "Barrackpore", "Type": "Telemet", "Number": "TP 7.04", "Watershed": "South Oropouche" }, "geometry": { "type": "Point", "coordinates": [ -61.367492086375741, 10.201517078591239 ] } },
{ "type": "Feature", "properties": { "Name": "Malgretoute", "Type": "Telemet", "Number": "TP 8.02", "Watershed": "Cipero" }, "geometry": { "type": "Point", "coordinates": [ -61.384459842935485, 10.277188280071394 ] } },
{ "type": "Feature", "properties": { "Name": "Flanagin Town", "Type": "Telemet", "Number": "TP 8.05", "Watershed": "Caparo" }, "geometry": { "type": "Point", "coordinates": [ -61.325084887151888, 10.422036044824717 ] } },
{ "type": "Feature", "properties": { "Name": "La Reunion", "Type": "Telemet", "Number": "TP 9.19", "Watershed": "Guayamare" }, "geometry": { "type": "Point", "coordinates": [ -61.308557103241426, 10.589471168937898 ] } },
{ "type": "Feature", "properties": { "Name": "Hollis", "Type": "Telemet", "Number": "TR 2.02", "Watershed": "Hollis" }, "geometry": { "type": "Point", "coordinates": [ -61.19477000953659, 10.687149751670793 ] } },
{ "type": "Feature", "properties": { "Name": "La Regalada Estate", "Type": "Pot", "Number": "9:52", "Watershed": "Santa Cruz" }, "geometry": { "type": "Point", "coordinates": [ -61.458646370579984, 10.68990942677291 ] } },
{ "type": "Feature", "properties": { "Name": "U.W.I. Field Station", "Type": "Pot", "Number": "9:60", "Watershed": "Santa Cruz" }, "geometry": { "type": "Point", "coordinates": [ -61.427991785656523, 10.638971427803741 ] } },
{ "type": "Feature", "properties": { "Name": "U.W.I.", "Type": "Pot", "Number": "9:33", "Watershed": "Tunapuna" }, "geometry": { "type": "Point", "coordinates": [ -61.399668506274033, 10.637064312282803 ] } },
{ "type": "Feature", "properties": { "Name": "Torrecilla Estate", "Type": "Pot", "Number": "9:15", "Watershed": "Arima" }, "geometry": { "type": "Point", "coordinates": [ -61.280598825926852, 10.651320024119618 ] } },
{ "type": "Feature", "properties": { "Name": "Valencia Range", "Type": "Pot", "Number": "9:39", "Watershed": "Aripo" }, "geometry": { "type": "Point", "coordinates": [ -61.202219646095365, 10.649773738141546 ] } },
{ "type": "Feature", "properties": { "Name": "Gordon Miller Estate", "Type": "Pot", "Number": "2:4", "Watershed": "Rest N Oropouche 2" }, "geometry": { "type": "Point", "coordinates": [ -61.07220950613258, 10.598023877104263 ] } },
{ "type": "Feature", "properties": { "Name": "Melajo Plantation", "Type": "Pot", "Number": "2:17", "Watershed": "North Oropouche" }, "geometry": { "type": "Point", "coordinates": [ -61.098100728057332, 10.642387510289883 ] } },
{ "type": "Feature", "properties": { "Name": "Penal WTP", "Type": "Pot", "Number": "7:3", "Watershed": "South Oropouche" }, "geometry": { "type": "Point", "coordinates": [ -61.477426261802442, 10.150932659464427 ] } },
{ "type": "Feature", "properties": { "Name": "Blanchisseusse Police Station", "Type": "Pot", "Number": "1:7", "Watershed": "Marianne" }, "geometry": { "type": "Point", "coordinates": [ -61.311185347936899, 10.798338435267233 ] } },
{ "type": "Feature", "properties": { "Name": "San Juan Estate", "Type": "Pot", "Number": "8:25", "Watershed": "Couva" }, "geometry": { "type": "Point", "coordinates": [ -61.349400872093213, 10.40287601074057 ] } },
{ "type": "Feature", "properties": { "Name": "San Antonio Estate", "Type": "Pot", "Number": "8:23", "Watershed": "Couva" }, "geometry": { "type": "Point", "coordinates": [ -61.346977136948276, 10.410854686276261 ] } },
{ "type": "Feature", "properties": { "Name": "Tortuge Estate", "Type": "Pot", "Number": "9:55", "Watershed": "Couva" }, "geometry": { "type": "Point", "coordinates": [ -61.387695557186319, 10.386404832224944 ] } },
{ "type": "Feature", "properties": { "Name": "TCL Claxton Bay", "Type": "Pot", "Number": "8:1", "Watershed": "Rest West" }, "geometry": { "type": "Point", "coordinates": [ -61.459776007972927, 10.350170561147918 ] } },
{ "type": "Feature", "properties": { "Name": "Newlands Estate", "Type": "Pot", "Number": "3:1", "Watershed": "Nariva" }, "geometry": { "type": "Point", "coordinates": [ -61.124088084765745, 10.438666746730735 ] } },
{ "type": "Feature", "properties": { "Name": "Pure", "Type": "Pot", "Number": "4:1", "Watershed": "Poole" }, "geometry": { "type": "Point", "coordinates": [ -61.302082323211927, 10.337760432479188 ] } },
{ "type": "Feature", "properties": { "Name": "Asa Wright Nature Center", "Type": "Pot", "Number": "9:59", "Watershed": "Arima" }, "geometry": { "type": "Point", "coordinates": [ -61.298602632790292, 10.718076467645238 ] } },
{ "type": "Feature", "properties": { "Name": "River Estate", "Type": "Pot", "Number": "9:4", "Watershed": "Chaguaramas" }, "geometry": { "type": "Point", "coordinates": [ -61.557744558355594, 10.732474576111978 ] } },
{ "type": "Feature", "properties": { "Name": "Matura Police Station", "Type": "Pot", "Number": "2:16", "Watershed": "Matura" }, "geometry": { "type": "Point", "coordinates": [ -61.050276328294075, 10.683017724740699 ] } },
{ "type": "Feature", "properties": { "Name": "Cumana Village", "Type": "Pot", "Number": "2:21", "Watershed": "Toco" }, "geometry": { "type": "Point", "coordinates": [ -60.953106152288996, 10.793173432768684 ] } },
{ "type": "Feature", "properties": { "Name": "Sans Souci", "Type": "Pot", "Number": "2:6", "Watershed": "Cunapo" }, "geometry": { "type": "Point", "coordinates": [ -61.119690108206868, 10.57139003312888 ] } },
{ "type": "Feature", "properties": { "Name": "San Antonio Moruga", "Type": "Pot", "Number": "5:6", "Watershed": "Moruga" }, "geometry": { "type": "Point", "coordinates": [ -61.303475006584378, 10.145252324590736 ] } },
{ "type": "Feature", "properties": { "Name": "Point Fortin WTP", "Type": "Pot", "Number": "6:7", "Watershed": "Guapo" }, "geometry": { "type": "Point", "coordinates": [ -61.653478849111927, 10.17901067249713 ] } },
{ "type": "Feature", "properties": { "Name": "Chatham", "Type": "Pot", "Number": "6:18", "Watershed": "Cedros" }, "geometry": { "type": "Point", "coordinates": [ -61.74028058742396, 10.125002347100448 ] } },
{ "type": "Feature", "properties": { "Name": "Granville WTP", "Type": "Pot", "Number": "6:6", "Watershed": "Cedros" }, "geometry": { "type": "Point", "coordinates": [ -61.798368821134318, 10.129542093649517 ] } },
{ "type": "Feature", "properties": { "Name": "Singhs Estate", "Type": "Pot", "Number": "6:17", "Watershed": "Cedros" }, "geometry": { "type": "Point", "coordinates": [ -61.853971785062654, 10.094491785363545 ] } },
{ "type": "Feature", "properties": { "Name": "Perseverence Estate", "Type": "Pot", "Number": "6:11", "Watershed": "Cedros" }, "geometry": { "type": "Point", "coordinates": [ -61.882627146795386, 10.087811172305884 ] } },
{ "type": "Feature", "properties": { "Name": "Columbia Estate", "Type": "Pot", "Number": "6:12", "Watershed": "Cedros" }, "geometry": { "type": "Point", "coordinates": [ -61.89009486440434, 10.087824084591027 ] } },
{ "type": "Feature", "properties": { "Name": "San Quintin Estate", "Type": "Pot", "Number": "6:9", "Watershed": "Cedros" }, "geometry": { "type": "Point", "coordinates": [ -61.907548332519958, 10.080675065718451 ] } },
{ "type": "Feature", "properties": { "Name": "Navet Presbyterian School", "Type": "Pot", "Number": "3:9", "Watershed": "Nariva" }, "geometry": { "type": "Point", "coordinates": [ -61.180829340307014, 10.347261925738726 ] } },
{ "type": "Feature", "properties": { "Name": "Fishing Pond", "Type": "Pot", "Number": "2:2", "Watershed": "Rest N Oropuche 2" }, "geometry": { "type": "Point", "coordinates": [ -61.050110293319982, 10.593222195940008 ] } },
{ "type": "Feature", "properties": { "Name": "Ortoire Estate", "Type": "Pot", "Number": "3:6", "Watershed": "Ortoire" }, "geometry": { "type": "Point", "coordinates": [ -60.994879836082255, 10.339770645329589 ] } },
{ "type": "Feature", "properties": { "Name": "Grosvenor Estate", "Type": "Pot", "Number": "2:8", "Watershed": "Cunapo" }, "geometry": { "type": "Point", "coordinates": [ -61.113010018111702, 10.52327993713223 ] } },
{ "type": "Feature", "properties": { "Name": "El Susan Estate", "Type": "Pot", "Number": "9:26", "Watershed": "Cumuto" }, "geometry": { "type": "Point", "coordinates": [ -61.204300589893194, 10.576127499208893 ] } },
{ "type": "Feature", "properties": { "Name": "Cumuto Pine Nursery", "Type": "Pot", "Number": "9:50", "Watershed": "Aripo" }, "geometry": { "type": "Point", "coordinates": [ -61.207995028599285, 10.592995995921273 ] } },
{ "type": "Feature", "properties": { "Name": "Brasso Paria", "Type": "Pot", "Number": "1:9", "Watershed": "Madamas" }, "geometry": { "type": "Point", "coordinates": [ -61.264926143937039, 10.746543377382244 ] } },
{ "type": "Feature", "properties": { "Name": "Navet Damsite", "Type": "Pot", "Number": "3:8", "Watershed": "Lower Navet" }, "geometry": { "type": "Point", "coordinates": [ -61.255811736377382, 10.404183812287213 ] } },
{ "type": "Feature", "properties": { "Name": "Marper Farm", "Type": "Pot", "Number": "3:5", "Watershed": "Le Branche" }, "geometry": { "type": "Point", "coordinates": [ -61.088268418070392, 10.504825909324202 ] } },
{ "type": "Feature", "properties": { "Name": "TCL Mayo", "Type": "Pot", "Number": "8:29", "Watershed": "Guaracara" }, "geometry": { "type": "Point", "coordinates": [ -61.376163188510553, 10.357368182556385 ] } },
{ "type": "Feature", "properties": { "Name": "Arena Dam", "Type": "Pot", "Number": "9:64", "Watershed": "Caroni Arena Dam" }, "geometry": { "type": "Point", "coordinates": [ -61.253410457391908, 10.547886415642738 ] } },
{ "type": "Feature", "properties": { "Name": "Hollis", "Type": "Pot", "Number": "2:3", "Watershed": "Hollis" }, "geometry": { "type": "Point", "coordinates": [ -61.193368134621466, 10.689163823469004 ] } },
{ "type": "Feature", "properties": { "Name": "San Pedro Estate", "Type": "Pot", "Number": "8:22", "Watershed": "Couva" }, "geometry": { "type": "Point", "coordinates": [ -61.382706254069504, 10.398566045879777 ] } },
{ "type": "Feature", "properties": { "Name": "Caura", "Type": "Telemet", "Number": "TP 9.04\n", "Watershed": "Tacarigua" }, "geometry": { "type": "Point", "coordinates": [ -61.369255574791261, 10.661016003744949 ] } }
]
}
