{
"type": "FeatureCollection",
"name": "Rainfall",
"crs": { "type": "name", "properties": { "name": "urn:ogc:def:crs:OGC:1.3:CRS84" } },
"features": [
{ "type": "Feature", "properties": { "Name": "Point Fortin", "Number": "TE 6.01", "Watershed": "Guapo", "Type": "Telemet" }, "geometry": { "type": "Point", "coordinates": [ -61.654469353240273, 10.178008973832652 ] } },
{ "type": "Feature", "properties": { "Name": "Arena Telemet", "Number": "TE 9.02", "Watershed": "Caroni-Arena Dam", "Type": "Telemet" }, "geometry": { "type": "Point", "coordinates": [ -61.25545057922659, 10.543979958848425 ] } },
{ "type": "Feature", "properties": { "Name": "Sangre Grande", "Number": "TP 2.01", "Watershed": "Rest North Oropouche 2", "Type": "Telemet" }, "geometry": { "type": "Point", "coordinates": [ -61.119784448747858, 10.584514032956292 ] } },
{ "type": "Feature", "properties": { "Name": "Tamana Teak", "Number": "TP 2.02", "Watershed": "Cumuto", "Type": "Telemet" }, "geometry": { "type": "Point", "coordinates": [ -61.175472111521728, 10.465061713410872 ] } },
{ "type": "Feature", "properties": { "Name": "North Oropouche", "Number": "TP 2.05", "Watershed": "North Oropouche", "Type": "Telemet" }, "geometry": { "type": "Point", "coordinates": [ -61.139778861789637, 10.666984815475741 ] } },
{ "type": "Feature", "properties": { "Name": "Navet", "Number": "TP 3.04", "Watershed": "Upper Navet", "Type": "Telemet" }, "geometry": { "type": "Point", "coordinates": [ -61.251773329437256, 10.401393299456423 ] } },
{ "type": "Feature", "properties": { "Name": "Pure", "Number": "TP 4.01", "Watershed": "Pilote", "Type": "Telemet" }, "geometry": { "type": "Point", "coordinates": [ -61.304353854271454, 10.337216072310488 ] } },
{ "type": "Feature", "properties": { "Name": "Saunders Trace", "Number": "TP 4.02", "Watershed": "Moruga", "Type": "Telemet" }, "geometry": { "type": "Point", "coordinates": [ -61.174714842785171, 10.216817260319663 ] } },
{ "type": "Feature", "properties": { "Name": "Cat's Hill", "Number": "TP 5.03", "Watershed": "Moruga", "Type": "Telemet" }, "geometry": { "type": "Point", "coordinates": [ -61.308860009205453, 10.193673223313734 ] } },
{ "type": "Feature", "properties": { "Name": "Guapo", "Number": "TP 6.03", "Watershed": "Guapo", "Type": "Telemet" }, "geometry": { "type": "Point", "coordinates": [ -61.633742453674877, 10.15852789104124 ] } },
{ "type": "Feature", "properties": { "Name": "Barrackpore", "Number": "TP 7.04", "Watershed": "South Oropouche", "Type": "Telemet" }, "geometry": { "type": "Point", "coordinates": [ -61.367492086375741, 10.201517078591239 ] } },
{ "type": "Feature", "properties": { "Name": "Malgretoute", "Number": "TP 8.02", "Watershed": "Cipero", "Type": "Telemet" }, "geometry": { "type": "Point", "coordinates": [ -61.384459842935485, 10.277188280071394 ] } },
{ "type": "Feature", "properties": { "Name": "Flanagin Town", "Number": "TP 8.05", "Watershed": "Caparo", "Type": "Telemet" }, "geometry": { "type": "Point", "coordinates": [ -61.325084887151888, 10.422036044824717 ] } },
{ "type": "Feature", "properties": { "Name": "La Reunion", "Number": "TP 9.19", "Watershed": "Guayamare", "Type": "Telemet" }, "geometry": { "type": "Point", "coordinates": [ -61.308557103241426, 10.589471168937898 ] } },
{ "type": "Feature", "properties": { "Name": "Hollis", "Number": "TR 2.02", "Watershed": "Hollis", "Type": "Telemet" }, "geometry": { "type": "Point", "coordinates": [ -61.19477000953659, 10.687149751670793 ] } },
{ "type": "Feature", "properties": { "Name": "La Regalada Estate", "Number": "9:52", "Watershed": "Santa Cruz", "Type": "Pot" }, "geometry": { "type": "Point", "coordinates": [ -61.458646370579984, 10.68990942677291 ] } },
{ "type": "Feature", "properties": { "Name": "U.W.I. Field Station", "Number": "9:60", "Watershed": "Santa Cruz", "Type": "Pot" }, "geometry": { "type": "Point", "coordinates": [ -61.427991785656523, 10.638971427803741 ] } },
{ "type": "Feature", "properties": { "Name": "U.W.I.", "Number": "9:33", "Watershed": "Tunapuna", "Type": "Pot" }, "geometry": { "type": "Point", "coordinates": [ -61.399668506274033, 10.637064312282803 ] } },
{ "type": "Feature", "properties": { "Name": "Torrecilla Estate", "Number": "9:15", "Watershed": "Arima", "Type": "Pot" }, "geometry": { "type": "Point", "coordinates": [ -61.280598825926852, 10.651320024119618 ] } },
{ "type": "Feature", "properties": { "Name": "Valencia Range", "Number": "9:39", "Watershed": "Aripo", "Type": "Pot" }, "geometry": { "type": "Point", "coordinates": [ -61.202219646095365, 10.649773738141546 ] } },
{ "type": "Feature", "properties": { "Name": "Gordon Miller Estate", "Number": "2:4", "Watershed": "Rest N Oropouche 2", "Type": "Pot" }, "geometry": { "type": "Point", "coordinates": [ -61.07220950613258, 10.598023877104263 ] } },
{ "type": "Feature", "properties": { "Name": "Melajo Plantation", "Number": "2:17", "Watershed": "North Oropouche", "Type": "Pot" }, "geometry": { "type": "Point", "coordinates": [ -61.098100728057332, 10.642387510289883 ] } },
{ "type": "Feature", "properties": { "Name": "Penal WTP", "Number": "7:3", "Watershed": "South Oropouche", "Type": "Pot" }, "geometry": { "type": "Point", "coordinates": [ -61.477426261802442, 10.150932659464427 ] } },
{ "type": "Feature", "properties": { "Name": "Blanchisseusse Police Station", "Number": "1:7", "Watershed": "Marianne", "Type": "Pot" }, "geometry": { "type": "Point", "coordinates": [ -61.311185347936899, 10.798338435267233 ] } },
{ "type": "Feature", "properties": { "Name": "San Juan Estate", "Number": "8:25", "Watershed": "Couva", "Type": "Pot" }, "geometry": { "type": "Point", "coordinates": [ -61.349400872093213, 10.40287601074057 ] } },
{ "type": "Feature", "properties": { "Name": "San Antonio Estate", "Number": "8:23", "Watershed": "Couva", "Type": "Pot" }, "geometry": { "type": "Point", "coordinates": [ -61.346977136948276, 10.410854686276261 ] } },
{ "type": "Feature", "properties": { "Name": "Tortuge Estate", "Number": "9:55", "Watershed": "Couva", "Type": "Pot" }, "geometry": { "type": "Point", "coordinates": [ -61.387695557186319, 10.386404832224944 ] } },
{ "type": "Feature", "properties": { "Name": "TCL Claxton Bay", "Number": "8:1", "Watershed": "Rest West", "Type": "Pot" }, "geometry": { "type": "Point", "coordinates": [ -61.459776007972927, 10.350170561147918 ] } },
{ "type": "Feature", "properties": { "Name": "Newlands Estate", "Number": "3:1", "Watershed": "Nariva", "Type": "Pot" }, "geometry": { "type": "Point", "coordinates": [ -61.124088084765745, 10.438666746730735 ] } },
{ "type": "Feature", "properties": { "Name": "Pure", "Number": "4:1", "Watershed": "Poole", "Type": "Pot" }, "geometry": { "type": "Point", "coordinates": [ -61.302082323211927, 10.337760432479188 ] } },
{ "type": "Feature", "properties": { "Name": "Asa Wright Nature Center", "Number": "9:59", "Watershed": "Arima", "Type": "Pot" }, "geometry": { "type": "Point", "coordinates": [ -61.298602632790292, 10.718076467645238 ] } },
{ "type": "Feature", "properties": { "Name": "River Estate", "Number": "9:4", "Watershed": "Chaguaramas", "Type": "Pot" }, "geometry": { "type": "Point", "coordinates": [ -61.557744558355594, 10.732474576111978 ] } },
{ "type": "Feature", "properties": { "Name": "Matura Police Station", "Number": "2:16", "Watershed": "Matura", "Type": "Pot" }, "geometry": { "type": "Point", "coordinates": [ -61.050276328294075, 10.683017724740699 ] } },
{ "type": "Feature", "properties": { "Name": "Cumana Village", "Number": "2:21", "Watershed": "Toco", "Type": "Pot" }, "geometry": { "type": "Point", "coordinates": [ -60.953106152288996, 10.793173432768684 ] } },
{ "type": "Feature", "properties": { "Name": "Sans Souci", "Number": "2:6", "Watershed": "Cunapo", "Type": "Pot" }, "geometry": { "type": "Point", "coordinates": [ -61.119690108206868, 10.57139003312888 ] } },
{ "type": "Feature", "properties": { "Name": "San Antonio Moruga", "Number": "5:6", "Watershed": "Moruga", "Type": "Pot" }, "geometry": { "type": "Point", "coordinates": [ -61.303475006584378, 10.145252324590736 ] } },
{ "type": "Feature", "properties": { "Name": "Point Fortin WTP", "Number": "6:7", "Watershed": "Guapo", "Type": "Pot" }, "geometry": { "type": "Point", "coordinates": [ -61.653478849111927, 10.17901067249713 ] } },
{ "type": "Feature", "properties": { "Name": "Chatham", "Number": "6:18", "Watershed": "Cedros", "Type": "Pot" }, "geometry": { "type": "Point", "coordinates": [ -61.74028058742396, 10.125002347100448 ] } },
{ "type": "Feature", "properties": { "Name": "Granville WTP", "Number": "6:6", "Watershed": "Cedros", "Type": "Pot" }, "geometry": { "type": "Point", "coordinates": [ -61.798368821134318, 10.129542093649517 ] } },
{ "type": "Feature", "properties": { "Name": "Singhs Estate", "Number": "6:17", "Watershed": "Cedros", "Type": "Pot" }, "geometry": { "type": "Point", "coordinates": [ -61.853971785062654, 10.094491785363545 ] } },
{ "type": "Feature", "properties": { "Name": "Perseverence Estate", "Number": "6:11", "Watershed": "Cedros", "Type": "Pot" }, "geometry": { "type": "Point", "coordinates": [ -61.882627146795386, 10.087811172305884 ] } },
{ "type": "Feature", "properties": { "Name": "Columbia Estate", "Number": "6:12", "Watershed": "Cedros", "Type": "Pot" }, "geometry": { "type": "Point", "coordinates": [ -61.89009486440434, 10.087824084591027 ] } },
{ "type": "Feature", "properties": { "Name": "San Quintin Estate", "Number": "6:9", "Watershed": "Cedros", "Type": "Pot" }, "geometry": { "type": "Point", "coordinates": [ -61.907548332519958, 10.080675065718451 ] } },
{ "type": "Feature", "properties": { "Name": "Constance Estate", "Number": "6:4", "Watershed": "Cedros", "Type": "Pot" }, "geometry": { "type": "Point", "coordinates": [ -61.926129142484434, 10.063536805722087 ] } },
{ "type": "Feature", "properties": { "Name": "Navet Presbyterian School", "Number": "3:9", "Watershed": "Nariva", "Type": "Pot" }, "geometry": { "type": "Point", "coordinates": [ -61.180829340307014, 10.347261925738726 ] } },
{ "type": "Feature", "properties": { "Name": "Fishing Pond", "Number": "2:2", "Watershed": "Rest N Oropuche 2", "Type": "Pot" }, "geometry": { "type": "Point", "coordinates": [ -61.050110293319982, 10.593222195940008 ] } },
{ "type": "Feature", "properties": { "Name": "Ortoire Estate", "Number": "3:6", "Watershed": "Ortoire", "Type": "Pot" }, "geometry": { "type": "Point", "coordinates": [ -60.994879836082255, 10.339770645329589 ] } },
{ "type": "Feature", "properties": { "Name": "Grosvenor Estate", "Number": "2:8", "Watershed": "Cunapo", "Type": "Pot" }, "geometry": { "type": "Point", "coordinates": [ -61.113010018111702, 10.52327993713223 ] } },
{ "type": "Feature", "properties": { "Name": "El Susan Estate", "Number": "9:26", "Watershed": "Cumuto", "Type": "Pot" }, "geometry": { "type": "Point", "coordinates": [ -61.204300589893194, 10.576127499208893 ] } },
{ "type": "Feature", "properties": { "Name": "Cumuto Pine Nursery", "Number": "9:50", "Watershed": "Aripo", "Type": "Pot" }, "geometry": { "type": "Point", "coordinates": [ -61.207995028599285, 10.592995995921273 ] } },
{ "type": "Feature", "properties": { "Name": "Brasso Paria", "Number": "1:9", "Watershed": "Madamas", "Type": "Pot" }, "geometry": { "type": "Point", "coordinates": [ -61.264926143937039, 10.746543377382244 ] } },
{ "type": "Feature", "properties": { "Name": "Navet Damsite", "Number": "3:8", "Watershed": "Lower Navet", "Type": "Pot" }, "geometry": { "type": "Point", "coordinates": [ -61.255811736377382, 10.404183812287213 ] } },
{ "type": "Feature", "properties": { "Name": "Marper Farm", "Number": "3:5", "Watershed": "Le Branche", "Type": "Pot" }, "geometry": { "type": "Point", "coordinates": [ -61.088268418070392, 10.504825909324202 ] } },
{ "type": "Feature", "properties": { "Name": "TCL Mayo", "Number": "8:29", "Watershed": "Guaracara", "Type": "Pot" }, "geometry": { "type": "Point", "coordinates": [ -61.376163188510553, 10.357368182556385 ] } },
{ "type": "Feature", "properties": { "Name": "Arena Dam", "Number": "9:64", "Watershed": "Caroni Arena Dam", "Type": "Pot" }, "geometry": { "type": "Point", "coordinates": [ -61.253410457391908, 10.547886415642738 ] } },
{ "type": "Feature", "properties": { "Name": "Hollis", "Number": "2:3", "Watershed": "Hollis", "Type": "Pot" }, "geometry": { "type": "Point", "coordinates": [ -61.193368134621466, 10.689163823469004 ] } },
{ "type": "Feature", "properties": { "Name": "San Pedro Estate", "Number": "8:22", "Watershed": "Couva", "Type": "Pot" }, "geometry": { "type": "Point", "coordinates": [ -61.382706254069504, 10.398566045879777 ] } },
{ "type": "Feature", "properties": { "Name": "Caura", "Number": "TP 9.04\n", "Watershed": "Tacarigua", "Type": "Telemet" }, "geometry": { "type": "Point", "coordinates": [ -61.369255574791261, 10.661016003744949 ] } }
]
}
