{"type":"FeatureCollection","crs":{"type":"name","properties":{"name":"EPSG:32620"}},"features":[{"type":"Feature","id":0,"geometry":{"type":"Point","coordinates":[686567.38398945122,1175919.185779097]},"properties":{"FID":0,"Id":0,"Name":"Arima Angel Harps","Address":"Olton & EMR Road, Arima","Region":"East","Category":"Medium"}},{"type":"Feature","id":1,"geometry":{"type":"Point","coordinates":[674768.66931841127,1177347.5987174241]},"properties":{"FID":1,"Id":0,"Name":"Birdsong Steel Orchestra","Address":"#3 St. Vincent Street, Tunapuna","Region":"East","Category":"Large"}},{"type":"Feature","id":2,"geometry":{"type":"Point","coordinates":[673837.72736487899,1177683.4753023775]},"properties":{"FID":2,"Id":0,"Name":"Curepe Scherzando","Address":"#1 Evans Street, Curepe","Region":"East","Category":"Medium"}},{"type":"Feature","id":3,"geometry":{"type":"Point","coordinates":[675534.22631557146,1177180.0274681805]},"properties":{"FID":3,"Id":0,"Name":"Exodus","Address":"Eastern Main Road, St Augustine","Region":"East","Category":"Large"}},{"type":"Feature","id":4,"geometry":{"type":"Point","coordinates":[667418.0357965125,1177562.5857128471]},"properties":{"FID":4,"Id":0,"Name":"Harmonites Steel Orchestra","Address":"Lady Young Road, Barataria","Region":"East","Category":"Large"}},{"type":"Feature","id":5,"geometry":{"type":"Point","coordinates":[688698.84355071944,1175880.5437426281]},"properties":{"FID":5,"Id":0,"Name":"Melodians Steel Orchestra","Address":"#4 Bellamy St, Cocorite Rd, Arima","Region":"East","Category":"Medium"}},{"type":"Feature","id":6,"geometry":{"type":"Point","coordinates":[673744.149315716,1176492.4944967087]},"properties":{"FID":6,"Id":0,"Name":"Moods Steel Orchestra","Address":"Saldenah Terrace, Southern Main Road, Curepe","Region":"East","Category":"Medium"}},{"type":"Feature","id":7,"geometry":{"type":"Point","coordinates":[669758.07223350159,1178347.6034100123]},"properties":{"FID":7,"Id":0,"Name":"Pamberi Steel Orchestra","Address":"11A Santa Cruz Old Road, San Juan","Region":"East","Category":"Medium"}},{"type":"Feature","id":8,"geometry":{"type":"Point","coordinates":[679576.3529226809,1176991.4394048715]},"properties":{"FID":8,"Id":0,"Name":"Parry's Pan School","Address":"149A Eastern Main Road, Tacarigua","Region":"East","Category":"Medium"}},{"type":"Feature","id":9,"geometry":{"type":"Point","coordinates":[668463.47651179996,1178781.9822246651]},"properties":{"FID":9,"Id":0,"Name":"Potential Symphony","Address":"Upper Sixth Ave, Malick, Barataria","Region":"East","Category":"Medium"}},{"type":"Feature","id":10,"geometry":{"type":"Point","coordinates":[704913.0320775446,1171467.0606526206]},"properties":{"FID":10,"Id":0,"Name":"Sangre Grande Cordettes","Address":"38 Foster Road, Sangre Grande","Region":"East","Category":"Medium"}},{"type":"Feature","id":11,"geometry":{"type":"Point","coordinates":[674491.8075639914,1177453.2567389566]},"properties":{"FID":11,"Id":0,"Name":"Sforzata Steel Orchestra","Address":"Cor.Evans & Harris Street, Curepe","Region":"East","Category":"Medium"}},{"type":"Feature","id":12,"geometry":{"type":"Point","coordinates":[683047.4452692396,1178533.2335180405]},"properties":{"FID":12,"Id":0,"Name":"Supernovas Steel Orchestra","Address":"Surrey Village, Lopinot Road,Arouca","Region":"East","Category":"Large"}},{"type":"Feature","id":13,"geometry":{"type":"Point","coordinates":[663357.55356131541,1177780.6998888378]},"properties":{"FID":13,"Id":0,"Name":"Desperadoes","Address":"2 Victoria Avenue, Port of Spain","Region":"North","Category":"Large"}},{"type":"Feature","id":14,"geometry":{"type":"Point","coordinates":[661420.97877234838,1179427.1426565379]},"properties":{"FID":14,"Id":0,"Name":"Invaders Steel Orchestra","Address":"147 Tragarete Road, Woodbrook","Region":"North","Category":"Large"}},{"type":"Feature","id":15,"geometry":{"type":"Point","coordinates":[663449.59623933351,1179207.8379100235]},"properties":{"FID":15,"Id":0,"Name":"Pan-Demonium Steel Orchestra","Address":"3 Norfolk Street,Belmont","Region":"North","Category":"Medium"}},{"type":"Feature","id":16,"geometry":{"type":"Point","coordinates":[657740.93489071995,1186705.2825102026]},"properties":{"FID":16,"Id":0,"Name":"Panatics Steel Orchestra","Address":"Water Wheel Compound, River Est., Diego Martin.","Region":"North","Category":"Medium"}},{"type":"Feature","id":17,"geometry":{"type":"Point","coordinates":[660836.28954269341,1179528.9219602614]},"properties":{"FID":17,"Id":0,"Name":"Phase II Pan Groove","Address":"Hamilton Street, Woodbrook","Region":"North","Category":"Large"}},{"type":"Feature","id":18,"geometry":{"type":"Point","coordinates":[659685.28562577709,1180299.4083467319]},"properties":{"FID":18,"Id":0,"Name":"Power Stars Steel Orchestra","Address":"114 Western Main Road, St. James","Region":"North","Category":"Medium"}},{"type":"Feature","id":19,"geometry":{"type":"Point","coordinates":[663184.64347206755,1178608.2948629798]},"properties":{"FID":19,"Id":0,"Name":"Renegades Steel Orchestra","Address":"138 Charlotte Street, Port of Spain","Region":"North","Category":"Large"}},{"type":"Feature","id":20,"geometry":{"type":"Point","coordinates":[662934.62114288053,1178339.0461313436]},"properties":{"FID":20,"Id":0,"Name":"Flabej New Ensemble","Address":"#36 Pembroke Street, Port of Spain","Region":"North","Category":"Medium"}},{"type":"Feature","id":21,"geometry":{"type":"Point","coordinates":[662177.84468102281,1178914.0676676948]},"properties":{"FID":21,"Id":0,"Name":"Silver Stars","Address":"56 Tragarete Road, Newtown, Port of Spain","Region":"North","Category":"Large"}},{"type":"Feature","id":22,"geometry":{"type":"Point","coordinates":[664576.97150724626,1177366.6206806519]},"properties":{"FID":22,"Id":0,"Name":"Sound Specialists of Laventille","Address":"Eastern Quarry, Laventille","Region":"North","Category":"Medium"}},{"type":"Feature","id":23,"geometry":{"type":"Point","coordinates":[660271.31157517037,1179206.7659779594]},"properties":{"FID":23,"Id":0,"Name":"Starlift Steel Orchestra","Address":"1 A Christopher Samuel Drive, Mucurapo Ext.Rd, St James","Region":"North","Category":"Large"}},{"type":"Feature","id":24,"geometry":{"type":"Point","coordinates":[663261.62724682351,1178287.4889645963]},"properties":{"FID":24,"Id":0,"Name":"Trinidad All Stars","Address":"46 - 48 Duke Street, Port of Spain","Region":"North","Category":"Large"}},{"type":"Feature","id":25,"geometry":{"type":"Point","coordinates":[659035.37171662995,1184296.4449242055]},"properties":{"FID":25,"Id":0,"Name":"Valley Harps Steel Orchestra","Address":"#110 Morne Coco Road, Petit Valley","Region":"North","Category":"Medium"}},{"type":"Feature","id":26,"geometry":{"type":"Point","coordinates":[668812.16497033136,1136473.6536644357]},"properties":{"FID":26,"Id":0,"Name":"Skiffle Steel Orchestra","Address":"110 Coffee Street, San Fernando","Region":"South","Category":"Large"}},{"type":"Feature","id":27,"geometry":{"type":"Point","coordinates":[669551.60273190436,1139683.8563465045]},"properties":{"FID":27,"Id":0,"Name":"Southern Marines Steelband Foundation","Address":"Old Train Line, Southern Main Road, Marabella","Region":"South","Category":"Medium"}},{"type":"Feature","id":28,"geometry":{"type":"Point","coordinates":[644286.53121438681,1125305.2046735941]},"properties":{"FID":28,"Id":0,"Name":"Tornadoes Steel Orchestra","Address":"20 Richardson Street, Point Fortin","Region":"South","Category":"Medium"}},{"type":"Feature","id":29,"geometry":{"type":"Point","coordinates":[668772.62295670295,1136634.7394434689]},"properties":{"FID":29,"Id":0,"Name":"Pan Elders Steel Orchestra","Address":"18a Carib Street, San Fernando","Region":"South","Category":"Medium"}},{"type":"Feature","id":30,"geometry":{"type":"Point","coordinates":[668608.13492130942,1152284.3603355705]},"properties":{"FID":30,"Id":0,"Name":"Couva Joylanders Steel Orchestra","Address":"Railway Road, Couva","Region":"South","Category":"Medium"}},{"type":"Feature","id":31,"geometry":{"type":"Point","coordinates":[669107.55834812159,1136251.960954221]},"properties":{"FID":31,"Id":0,"Name":"Fonclaire Steel Orchestra","Address":"65 Dottin Street, San Fernando","Region":"South","Category":"Large"}},{"type":"Feature","id":32,"geometry":{"type":"Point","coordinates":[667583.77596391959,1135909.5822053384]},"properties":{"FID":32,"Id":0,"Name":"Hatters Steel Orchestra","Address":"100 Lady Hailes Avenue, San Fernando","Region":"South","Category":"Medium"}},{"type":"Feature","id":33,"geometry":{"type":"Point","coordinates":[651900.92337475356,1132697.5093356008]},"properties":{"FID":33,"Id":0,"Name":"La Brea Nightingales Steel Orchestra","Address":"Point Sable Road, Pt D'or, La Brea","Region":"South","Category":"Large"}},{"type":"Feature","id":34,"geometry":{"type":"Point","coordinates":[668650.94225839304,1136620.9197519785]},"properties":{"FID":34,"Id":0,"Name":"San City Steel Symphony","Address":"Carib Street Complex, Carib Street, San Fernando","Region":"South","Category":"Medium"}},{"type":"Feature","id":35,"geometry":{"type":"Point","coordinates":[662993.13359372516,1121421.9354050462]},"properties":{"FID":35,"Id":0,"Name":"Siparia Deltones","Address":"Railway Road, Siparia","Region":"South","Category":"Medium"}},{"type":"Feature","id":36,"geometry":{"type":"Point","coordinates":[676292.19939343119,1163947.979827445]},"properties":{"FID":36,"Id":0,"Name":"Tropical Angel Harps Steel Orchestra","Address":"Southern Main Rd, Enterprise, Chaguanas","Region":"South","Category":"Large"}},{"type":"Feature","id":37,"geometry":{"type":"Point","coordinates":[739535.52377643506,1236976.4285472333]},"properties":{"FID":37,"Id":0,"Name":"Buccooneers Steel Orchestra","Address":"Chance Street, Buccoo, Tobago","Region":"Tobago","Category":"Large"}},{"type":"Feature","id":38,"geometry":{"type":"Point","coordinates":[741518.46780699666,1235516.48597511]},"properties":{"FID":38,"Id":0,"Name":"Dixieland Steel Orchestra","Address":"Mt. Pleasant, Tobago","Region":"Tobago","Category":"Medium"}},{"type":"Feature","id":39,"geometry":{"type":"Point","coordinates":[742551.66881262255,1240026.3295229028]},"properties":{"FID":39,"Id":0,"Name":"Katzenjammers Steel Orchestra","Address":"Courtland Estate, Black Roack, Tobago","Region":"Tobago","Category":"Medium"}},{"type":"Feature","id":40,"geometry":{"type":"Point","coordinates":[741557.23035632272,1236699.4178608046]},"properties":{"FID":40,"Id":0,"Name":"Redemption Sound Setters","Address":"Montgomery Road, Bethel, Tobago","Region":"Tobago","Category":"Large"}},{"type":"Feature","id":41,"geometry":{"type":"Point","coordinates":[741796.20989955042,1236133.4846406665]},"properties":{"FID":41,"Id":0,"Name":"Steel Xplosion","Address":"Carnbee Main Road,Tobago","Region":"Tobago","Category":"Medium"}}]}