{
"type": "FeatureCollection",
"name": "Streamflow",
"crs": { "type": "name", "properties": { "name": "urn:ogc:def:crs:OGC:1.3:CRS84" } },
"features": [
{ "type": "Feature", "properties": { "Name": "Coora", "Code": "TF 7.01" }, "geometry": { "type": "Point", "coordinates": [ -61.473633444234061, 10.171303608858214 ] } },
{ "type": "Feature", "properties": { "Name": "St Joseph", "Code": "TF 9.02" }, "geometry": { "type": "Point", "coordinates": [ -61.413260382692101, 10.663262448170101 ] } },
{ "type": "Feature", "properties": { "Name": "Navet River", "Code": "TF 3.01" }, "geometry": { "type": "Point", "coordinates": [ -61.1798868963552, 10.352099554821008 ] } },
{ "type": "Feature", "properties": { "Name": "Diego Martin", "Code": "TF 9.01" }, "geometry": { "type": "Point", "coordinates": [ -61.554404012087225, 10.690042241520967 ] } },
{ "type": "Feature", "properties": { "Name": "Maraval", "Code": "TF 9.20" }, "geometry": { "type": "Point", "coordinates": [ -61.513382675777116, 10.700071121449966 ] } },
{ "type": "Feature", "properties": { "Name": "Tumpuna", "Code": "TF 9.05" }, "geometry": { "type": "Point", "coordinates": [ -61.271101999494036, 10.58236308009584 ] } }
]
}
